Longitude,Latitude,image,location
-3.68894207537291,40.466063829633,https://informo.madrid.es/cameras/Camara06303.jpg?v=39983,PLAZA DE CASTILLA (NORTE)
-3.68963237924212,40.4657761535436,https://informo.madrid.es/cameras/Camara06304.jpg?v=39983,PLAZA DE CASTILLA (SUR)
-3.68559709254018,40.4589506600118,https://informo.madrid.es/cameras/Camara05325.jpg?v=39983,ALBERTO ALCOCER-PADRE DAMIAN
-3.69048871765836,40.4520280139944,https://informo.madrid.es/cameras/Camara06306.jpg?v=39983,PLAZA DE LIMA
-3.70406984281203,40.4469910764164,https://informo.madrid.es/cameras/Camara06308.jpg?v=39983,CUATRO CAMINOS
-3.71914660133047,40.4348920483828,https://informo.madrid.es/cameras/Camara09303.jpg?v=39983,PRINCESA - MORET
-3.71764690637595,40.4392000528541,https://informo.madrid.es/cameras/Camara07306.jpg?v=39983,PLAZA CRISTO REY
-3.71992556005439,40.4202726781817,https://informo.madrid.es/cameras/Camara09307.jpg?v=39983,GTA DE SAN VICENTE
-3.71080716985496,40.4232117722576,https://informo.madrid.es/cameras/Camara09301.jpg?v=39983,PLAZA DE ESPAÑA - GRAN VÍA
-3.70549647487068,40.4201376524201,https://informo.madrid.es/cameras/Camara01314.jpg?v=39983,CALLAO - GRAN VIA
-3.68529531291997,40.4819889836805,https://informo.madrid.es/cameras/Camara06301.jpg?v=39983,M30 - PK31+500 C (NUDO NORTE)
-3.69041825734863,40.4379867257183,https://informo.madrid.es/cameras/Camara07302.jpg?v=39983,GREGORIO MARAÑÓN
-3.68579406660153,40.4454684074731,https://informo.madrid.es/cameras/Camara05308.jpg?v=39983,REPUBLICA ARGENTINA
-3.67666986774559,40.458595515585,https://informo.madrid.es/cameras/Camara05304.jpg?v=39983,REPUBLICA DOMINICANA
-3.67746270592335,40.4515456734308,https://informo.madrid.es/cameras/Camara05306.jpg?v=39983,CONCHA ESPINA - PPE DE VERGARA
-3.67736195699703,40.4373283568245,https://informo.madrid.es/cameras/Camara04312.jpg?v=39983,AV AMERICA - FRANCISCO SILVELA
-3.70224251218166,40.4288894509383,https://informo.madrid.es/cameras/Camara01320.jpg?v=39983,BILBAO
-3.6624479787291,40.4311282252931,https://informo.madrid.es/cameras/Camara04305.jpg?v=39983,ALCALA - VENTAS
-3.67587620471999,40.4248980850836,https://informo.madrid.es/cameras/Camara04307.jpg?v=39983,ALCALA - GOYA
-3.66891397966186,40.4280136411192,https://informo.madrid.es/cameras/Camara04306.jpg?v=39983,MANUEL BECERRA
-3.67023731893022,40.4066547944021,https://informo.madrid.es/cameras/Camara03303.jpg?v=39983,CONDE DE CASAL
-3.69496549134601,40.3911362769227,https://informo.madrid.es/cameras/Camara02304.jpg?v=39983,LEGAZPI
-3.70256810904181,40.4050292623528,https://informo.madrid.es/cameras/Camara01306.jpg?v=39983,EMBAJADORES
-3.69310930664668,40.4076578999155,https://informo.madrid.es/cameras/Camara01305.jpg?v=39983,ATOCHA - SUR
-3.69215886323192,40.4091889304854,https://informo.madrid.es/cameras/Camara01304.jpg?v=39983,ATOCHA - NORTE
-3.69311379706586,40.418975488442,https://informo.madrid.es/cameras/Camara01302.jpg?v=39983,CIBELES 1
-3.69666543418588,40.4188902498848,https://informo.madrid.es/cameras/Camara01317.jpg?v=39983,GRAN VIA - ALCALA
-3.70028134568391,40.41665894556,https://informo.madrid.es/cameras/Camara01318.jpg?v=39983,PLAZA CANALEJAS
-3.70441422114003,40.433609670381,https://informo.madrid.es/cameras/Camara07308.jpg?v=39983,QUEVEDO
-3.69554323168411,40.4275889842274,https://informo.madrid.es/cameras/Camara01321.jpg?v=39983,ALONSO MARTINEZ
-3.68682184407938,40.4331108427897,https://informo.madrid.es/cameras/Camara04310.jpg?v=39983,SERRANO - JUAN BRAVO
-3.69208721525549,40.4415004497139,https://informo.madrid.es/cameras/Camara07301.jpg?v=39983,SAN JUAN DE LA CRUZ
-3.70431105084027,40.4386519670048,https://informo.madrid.es/cameras/Camara07312.jpg?v=39983,BRAVO MURILLO - JOSE ABASCAL
-3.70399519664177,40.4421976843761,https://informo.madrid.es/cameras/Camara07307.jpg?v=39983,JUAN ZORRILLA
-3.68441648165817,40.4208869217821,https://informo.madrid.es/cameras/Camara04308.jpg?v=39983,ALCALA - VELAZQUEZ
-3.69383605438619,40.4151876298632,https://informo.madrid.es/cameras/Camara01303.jpg?v=39983,NEPTUNO
-3.72412704749693,40.4141769836337,https://informo.madrid.es/cameras/Camara10302.jpg?v=39983,PUENTE DE SEGOVIA
-3.71590574066187,40.3978141759504,https://informo.madrid.es/cameras/Camara11307.jpg?v=39983,MARQUES DE VADILLO
-3.66416986983818,40.4202318046233,https://informo.madrid.es/cameras/Camara04302.jpg?v=39983,TORRE ESPAÑA - M30
-3.66417851341475,40.4202162172987,https://informo.madrid.es/cameras/Camara04303.jpg?v=39983,TORRE ESPAÑA - DOCTOR ESQUERDO
-3.66653120075293,40.4057679556986,https://informo.madrid.es/cameras/Camara03306.jpg?v=39983,ANTORCHA NORTE
-3.66656152725347,40.4057225773378,https://informo.madrid.es/cameras/Camara03307.jpg?v=39983,ANTORCHA SUR
-3.5828908885005,40.4445786103989,https://informo.madrid.es/cameras/Camara20308.jpg?v=39983,CAMPEZO - SAMANIEGO
-3.71298613029766,40.4193356999735,https://informo.madrid.es/cameras/Camara01308.jpg?v=39983,TUNEL BAILEN
-3.71308334219788,40.4193617577041,https://informo.madrid.es/cameras/Camara01309.jpg?v=39983,TUNEL BAILEN III
-3.71306607448308,40.4176798360947,https://informo.madrid.es/cameras/Camara01310.jpg?v=39983,TUNEL BAILEN I
-3.71327474163431,40.4175474803144,https://informo.madrid.es/cameras/Camara01311.jpg?v=39983,TUNEL BAILEN II
-3.72052884948616,40.4765166846076,https://informo.madrid.es/cameras/Camara08317.jpg?v=39983,M30 - PK27+800 D (SALVADOR MAELLA)
-3.67672677513625,40.3924259771051,https://informo.madrid.es/cameras/Camara02308.jpg?v=39983,M30 - PK10+900 C (MENDEZ ALVARO)
-3.73405326511502,40.4264887245659,https://informo.madrid.es/cameras/Camara09309.jpg?v=39983,M30 - PK19+700 D (MARQUES DE MONISTROL)
-3.73890775169405,40.4346488208148,https://informo.madrid.es/cameras/Camara09310.jpg?v=39983,M30 - PK20+700 D (PUENTE DE LOS FRANCESES)
-3.75388390493238,40.3620757350818,https://informo.madrid.es/cameras/Camara10309.jpg?v=39983,PESETA - CARABANCHEL ALTO
-3.66421711572923,40.4838688702002,https://informo.madrid.es/cameras/Camara15302.jpg?v=39983,M-11 - CONDE MAYALDE
-3.66373168155164,40.4832996639864,https://informo.madrid.es/cameras/Camara15301.jpg?v=39983,M-11 - ARTURO SORIA
-3.71674428829043,40.4857739012734,https://informo.madrid.es/cameras/Camara08309.jpg?v=39983,VENTISQUERO DE LA CONDESA
-3.69289138703954,40.3516156532895,https://informo.madrid.es/cameras/Camara17301.jpg?v=39983,AV ANDALUCIA - ALCOCER
-3.66487905008187,40.5047727461688,https://informo.madrid.es/cameras/Camara08313.jpg?v=39983,PALAS DEL REY - VALCARLOS
-3.64964227959373,40.4946309486061,https://informo.madrid.es/cameras/Camara16316.jpg?v=39983,NICETO A. ZAMORA - EMILIO HERRERA
-3.76556743966716,40.3730556578857,https://informo.madrid.es/cameras/Camara10307.jpg?v=39983,AV AVIACION - JOAQUIN TURINA
-3.66596263436384,40.403651557445,https://informo.madrid.es/cameras/Camara13305.jpg?v=39983,M30 - PK09+350 D (A3)
-3.6551592978091,40.4107049430342,https://informo.madrid.es/cameras/Camara14303.jpg?v=39983,VINATEROS - MEDIA LEGUA
-3.60967908068689,40.3685723045833,https://informo.madrid.es/cameras/Camara18303.jpg?v=39983,ENSANCHE VALLECAS - PEÑARANDA DE BRACAMONTE
-3.69111882683206,40.4789110413546,https://informo.madrid.es/cameras/Camara08316.jpg?v=39983,MONFORTE DE LEMOS - PEDRO RICO
-3.68916470090093,40.4748636501762,https://informo.madrid.es/cameras/Camara08315.jpg?v=39983,MONFORTE DE LEMOS - SINESIO DELGADO
-3.64077197765198,40.4416174030438,https://informo.madrid.es/cameras/Camara15319.jpg?v=39983,ARTURO SORIA - JOSE DEL HIERRO
-3.71403239385324,40.410233366347,https://informo.madrid.es/cameras/Camara01307.jpg?v=39983,BAILEN - SAN FRANCISCO EL GRANDE
-3.68364710588772,40.4067575616644,https://informo.madrid.es/cameras/Camara03313.jpg?v=39983,REINA CRISTNA - J. GAYARRE
-3.71760936339191,40.3850864445122,https://informo.madrid.es/cameras/Camara11302.jpg?v=39983,PLAZA FERNANDEZ LADREDA
-3.66966496355964,40.3984502661488,https://informo.madrid.es/cameras/Camara13301.jpg?v=39983,M30 - PK10+000 C (CIUDAD DE BARCELONA)
-3.71172786377166,40.4302710763766,https://informo.madrid.es/cameras/Camara07311.jpg?v=39983,ALBERTO AGUILERA - MÁRTIRES DE ALCALÁ
-3.64013452689016,40.3943923770882,https://informo.madrid.es/cameras/Camara13304.jpg?v=39983,PABLO NERUDA - FUENTE CARRANTONA
-3.6253224901263,40.3833904680728,https://informo.madrid.es/cameras/Camara18301.jpg?v=39983,ALBUFERA - DEMOCRACIA
-3.66871138009731,40.4245226477132,https://informo.madrid.es/cameras/Camara04304.jpg?v=39983,GOYA - DOCTOR ESQUERDO
-3.71447722530376,40.4006226293067,https://informo.madrid.es/cameras/Camara02310.jpg?v=39983,PIRAMIDES
-3.72059622646489,40.4041209229378,https://informo.madrid.es/cameras/Camara11310.jpg?v=39983,MELANCOLICOS
-3.72085481645511,40.413965827844,https://informo.madrid.es/cameras/Camara01312.jpg?v=39983,VIRGEN DEL PUERTO - PUENTE DE SEGOVIA
-3.6862269715792,40.4379400160201,https://informo.madrid.es/cameras/Camara04309.jpg?v=39983,MARIA DE MOLINA - SERRANO
-3.6511381676961,40.4494053747709,https://informo.madrid.es/cameras/Camara15304.jpg?v=39983,ARTURO SORIA - GREGORIO BENITEZ
-3.68295411554663,40.4377536763851,https://informo.madrid.es/cameras/Camara04311.jpg?v=39983,VELAZQUEZ - MARIA DE MOLINA
-3.68872795853866,40.4305915676197,https://informo.madrid.es/cameras/Camara07303.jpg?v=39983,CASTELLANA - JOSE ORTEGA Y GASSET
-3.69923151686566,40.4009280532517,https://informo.madrid.es/cameras/Camara02305.jpg?v=39983,SANTA MARIA DE LA CABEZA
-3.72167810663169,40.4372667568143,https://informo.madrid.es/cameras/Camara09304.jpg?v=39983,FARO MONCLOA - PRINCESA
-3.72172006759321,40.4372661534638,https://informo.madrid.es/cameras/Camara09305.jpg?v=39983,FARO MONCLOA - A6
-3.7293943944027,40.4143551026534,https://informo.madrid.es/cameras/Camara10319.jpg?v=39983,AV DE PORTUGAL - PUERTA DEL ANGEL
-3.73178741461319,40.3884080927332,https://informo.madrid.es/cameras/Camara11309.jpg?v=39983,GENERAL RICARDOS - OCA
-3.66773733699182,40.4589230186244,https://informo.madrid.es/cameras/Camara05303.jpg?v=39983,COSTA RICA - JOSÉ MARIA SOLER
-3.65380697696926,40.3916381745692,https://informo.madrid.es/cameras/Camara13302.jpg?v=39983,ALBUFERA - BUENOS AIRES
-3.71748288697177,40.4825133436259,https://informo.madrid.es/cameras/Camara08310.jpg?v=39983,HERRERA ORIA - ISLA DE AROSA
-3.70419310325823,40.4794013004621,https://informo.madrid.es/cameras/Camara08311.jpg?v=39983,GINZO DE LIMIA - MONFORTE DE LEMOS
-3.71302899940183,40.4802449927643,https://informo.madrid.es/cameras/Camara08303.jpg?v=39983,M30 - PK28+500 C (BETANZOS)
-3.70834772875158,40.4471143818412,https://informo.madrid.es/cameras/Camara06309.jpg?v=39983,REINA VICTORIA - PABLO IGLESIAS
-3.70166784379408,40.4574207484658,https://informo.madrid.es/cameras/Camara06310.jpg?v=39983,BRAVO MURILLO - SAN GERMAN
-3.70220739398887,40.4738403675146,https://informo.madrid.es/cameras/Camara08312.jpg?v=39983,SINESIO DELGADO - GINZO DE LIMIA
-3.65641825882976,40.4557585589879,https://informo.madrid.es/cameras/Camara15303.jpg?v=39983,ARTURO SORIA - JOSE SILVA
-3.66755949796724,40.4522480942437,https://informo.madrid.es/cameras/Camara05307.jpg?v=39983,RAMON Y CAJAL - ALFONSO XIII
-3.7219935472809,40.4287540905853,https://informo.madrid.es/cameras/Camara09306.jpg?v=39983,MARQUES DE URQUIJO - PINTOR ROSALES
-3.67868084652383,40.4076896421648,https://informo.madrid.es/cameras/Camara03302.jpg?v=39983,MARIANO DE CAVIA - M. PELAYO
-3.69507802449755,40.3755693664418,https://informo.madrid.es/cameras/Camara12302.jpg?v=39983,GTA DE MALAGA
-3.73604829552557,40.4730709329769,https://informo.madrid.es/cameras/Camara08318.jpg?v=39983,M30 - PK26+500 C (AV ILUSTRACION)
-3.66619102334593,40.4949327249723,https://informo.madrid.es/cameras/Camara16306.jpg?v=39983,F. PI Y MARGALL - A1
-3.69873245176535,40.4900013095212,https://informo.madrid.es/cameras/Camara08308.jpg?v=39983,HERRERA ORIA - M607
-3.61700383129781,40.4585892509038,https://informo.madrid.es/cameras/Camara16301.jpg?v=39983,LOS ANDES - M40
-3.62356284237662,40.4419519245505,https://informo.madrid.es/cameras/Camara20306.jpg?v=39983,ALCALA - 25 DE SEPTIEMBRE
-3.6262760555862,40.4476300554801,https://informo.madrid.es/cameras/Camara20307.jpg?v=39983,RICARDO VELAZQUEZ BOSCO
-3.65421010155642,40.4669098830069,https://informo.madrid.es/cameras/Camara16305.jpg?v=39983,LUIS ROSALES
-3.64659856893002,40.4684081000148,https://informo.madrid.es/cameras/Camara16304.jpg?v=39983,FERNANDEZ ORDOÑEZ
-3.63836857164805,40.476523545986,https://informo.madrid.es/cameras/Camara16327.jpg?v=39983,GREGORIO SANCHEZ HERRAES - M40
-3.74152941892531,40.4488347678587,https://informo.madrid.es/cameras/Camara08307.jpg?v=39983,M30 - PK22+400 D (VETERINARIA)
-3.75042423866799,40.4689655801023,https://informo.madrid.es/cameras/Camara08306.jpg?v=39983,M30 - PK24+800 D (ARROYO DEL FRESNO)
-3.74817912543411,40.4745147317434,https://informo.madrid.es/cameras/Camara08305.jpg?v=39983,M30 - PK25+000 C (NUDO M-40)
-3.68736447015628,40.4739870077803,https://informo.madrid.es/cameras/Camara06302.jpg?v=39983,CASTELLANA - SINESIO DELGADO
-3.67979696748537,40.4295195084571,https://informo.madrid.es/cameras/Camara04313.jpg?v=39983,MARQUES DE SALAMANCA
-3.69123399594272,40.446473189837,https://informo.madrid.es/cameras/Camara06307.jpg?v=39983,CASTELLANA - R. FDEZ VILLAVERDE
-3.69474455396037,40.394460575941,https://informo.madrid.es/cameras/Camara02303.jpg?v=39983,BEATA MARIA DE JESUS
-3.6802354830712,40.3956240202939,https://informo.madrid.es/cameras/Camara02306.jpg?v=39983,MENDEZ ALVARO - PEDRO BOSCH
-3.62756168186269,40.4143742504454,https://informo.madrid.es/cameras/Camara14302.jpg?v=39983,FUENTE CARRANTONA - O'DONNELL
-3.63126933651617,40.4076381696573,https://informo.madrid.es/cameras/Camara14301.jpg?v=39983,FUENTE CARRANTONA - GARCIA TAPIA
-3.62263706811027,40.454459044628,https://informo.madrid.es/cameras/Camara16302.jpg?v=39983,LOS ANDES - MACHUPICHU
-3.64388450158001,40.3891415056695,https://informo.madrid.es/cameras/Camara13303.jpg?v=39983,ALBUFERA - PABLO NERUDA
-3.7616499842713,40.3857042569999,https://informo.madrid.es/cameras/Camara10306.jpg?v=39983,AV POBLADOS - LAS AGUILAS
-3.6697968983246,40.4115766758191,https://informo.madrid.es/cameras/Camara03304.jpg?v=39983,DOCTOR ESQUERDO - NAZARET
-3.67767457554995,40.4487783765525,https://informo.madrid.es/cameras/Camara05305.jpg?v=39983,PLAZA DE CATALUÑA
-3.69402554488404,40.4859047008195,https://informo.madrid.es/cameras/Camara08301.jpg?v=39983,M30 - PK30+500 C (M607)
-3.72814535583846,40.4229444022489,https://informo.madrid.es/cameras/Camara09311.jpg?v=39983,M30 - PK19+000 D (SAN POL DE MAR)
-3.71180572384229,40.471107847124,https://informo.madrid.es/cameras/Camara08314.jpg?v=39983,PIEDRAFITA
-3.62379090298775,40.4182283309521,https://informo.madrid.es/cameras/Camara20302.jpg?v=39983,ALSACIA
-3.68873616586719,40.4349356071215,https://informo.madrid.es/cameras/Camara07304.jpg?v=39983,EMILIO CASTELAR
-3.68395131585049,40.4252254718021,https://informo.madrid.es/cameras/Camara04314.jpg?v=39983,GOYA - VELAZQUEZ
-3.68421152438939,40.4250598496886,https://informo.madrid.es/cameras/Camara04315.jpg?v=39983,VELAZQUEZ - GOYA
-3.66027001272525,40.4317687029554,https://informo.madrid.es/cameras/Camara15307.jpg?v=39983,M30 - PK06+000 D (ALCALA)
-3.69862464728239,40.4605598420622,https://informo.madrid.es/cameras/Camara06311.jpg?v=39983,BRAVO MURILLO - SOR ANGELA DE LA CRUZ
-3.61107227403309,40.4211709422502,https://informo.madrid.es/cameras/Camara20303.jpg?v=39983,AQUITANIA - AJALVIR A VICALVARO
-3.60655910102406,40.4354876571773,https://informo.madrid.es/cameras/Camara20304.jpg?v=39983,PLAZA DE GRECIA
-3.61206624650029,40.4345634117235,https://informo.madrid.es/cameras/Camara20305.jpg?v=39983,ARCENTALES - CANILLEJAS A VICALVARO
-3.62831821945704,40.4245026553321,https://informo.madrid.es/cameras/Camara20301.jpg?v=39983,ARCENTALES - GARCÍA NOBLEJAS
-3.6942382233272,40.3974317962423,https://informo.madrid.es/cameras/Camara02301.jpg?v=39983,DELICIAS-TOMAS BRETON
-3.69055635917563,40.4048742254318,https://informo.madrid.es/cameras/Camara02302.jpg?v=39983,MENDEZ ALVARO . GRAL. LACY
-3.69917659333754,40.3878445242957,https://informo.madrid.es/cameras/Camara12301.jpg?v=39983,GTA DE CADIZ
-3.70611049020367,40.3931470251125,https://informo.madrid.es/cameras/Camara11303.jpg?v=39983,SANTA MARIA DE LA CABEZA - ANTONIO LOPEZ
-3.69596372391544,40.3853600489275,https://informo.madrid.es/cameras/Camara12309.jpg?v=39983,ANTONIO LOPEZ - VADO
-3.72007341440265,40.3696565546441,https://informo.madrid.es/cameras/Camara12304.jpg?v=39983,A42 - PK5+000 (AV POBLADOS)
-3.71950648988237,40.3739016317604,https://informo.madrid.es/cameras/Camara12307.jpg?v=39983,AV POBLADOS - A42
-3.71232185696519,40.3734222062276,https://informo.madrid.es/cameras/Camara12306.jpg?v=39983,AV POBLADOS - RAFAELA YBARRA
-3.69436528337476,40.3708211308595,https://informo.madrid.es/cameras/Camara12305.jpg?v=39983,AV ANDALUCIA - AV POBLADOS
-3.71009141538884,40.3906444966537,https://informo.madrid.es/cameras/Camara12303.jpg?v=39983,A42 - PK2+000 (ANTONIO LOPEZ)
-3.69396814398249,40.3642146867766,https://informo.madrid.es/cameras/Camara12308.jpg?v=39983,AV ANDALUCIA - M40
-3.69935620035459,40.417954778044,https://informo.madrid.es/cameras/Camara01316.jpg?v=39983,ALCALA - SEVILLA
-3.69975868513452,40.4197412324238,https://informo.madrid.es/cameras/Camara01315.jpg?v=39983,GRAN VIA - CLAVEL
-3.58143003603218,40.4691607831339,https://informo.madrid.es/cameras/Camara21301.jpg?v=39983,AV LOGROÑO
-3.6743438808406,40.4671795472619,https://informo.madrid.es/cameras/Camara05309.jpg?v=39983,PIO XII - MEMORIAL
-3.74990064698377,40.3765005891021,https://informo.madrid.es/cameras/Camara10308.jpg?v=39983,AV POBLADOS - EUGENIA DE MONTIJO
-3.67213428975523,40.4710344657796,https://informo.madrid.es/cameras/Camara05301.jpg?v=39983,M30 - PK01+500 C (PIO XII)
-3.66490162389502,40.4602439566372,https://informo.madrid.es/cameras/Camara05302.jpg?v=39983,M30 - PK02+900 D (COSTA RICA)
-3.66566325833329,40.4062050476221,https://informo.madrid.es/cameras/Camara03305.jpg?v=39983,M30 - PK09+100 C (AV MEDITERRANEO)
-3.65870299437435,40.4186483667176,https://informo.madrid.es/cameras/Camara04301.jpg?v=39983,M30 - PK07+600 D (O'DONNELL)
-3.65952087194156,40.4446712905133,https://informo.madrid.es/cameras/Camara15306.jpg?v=39983,M30 - PK04+700 D (AV AMERICA)
-3.70451610535889,40.4819491011951,https://informo.madrid.es/cameras/Camara08302.jpg?v=39983,M30 - PK29+800 C (REALES ACADEMIAS)
-3.72759053880321,40.4728310237106,https://informo.madrid.es/cameras/Camara08304.jpg?v=39983,M30 - PK27+250 C (ISAAC RABIN)
-3.73384844330134,40.3737996875754,https://informo.madrid.es/cameras/Camara11301.jpg?v=39983,AV POBLADOS - VIA LUSITANA
-3.6149193416598,40.3867801212278,https://informo.madrid.es/cameras/Camara18304.jpg?v=39983,HOSPITAL DE VALLECAS
-3.67383487662946,40.4842502114278,https://informo.madrid.es/cameras/Camara16307.jpg?v=39983,M30 - PK00+000 C (MANOTERAS)
-3.69340359300525,40.4129047170404,https://informo.madrid.es/cameras/Camara01323.jpg?v=39983,PASEO DEL PRADO - HUERTAS
-3.69156977082507,40.4221853516363,https://informo.madrid.es/cameras/Camara01322.jpg?v=39983,RECOLETOS - ALMIRANTE
-3.671609921812,40.4318037449321,https://informo.madrid.es/cameras/Camara04316.jpg?v=39983,FRANCISCO SILVELA - AV DE LOS TOREROS
-3.60858175543823,40.4492200202142,https://informo.madrid.es/cameras/Camara20309.jpg?v=39983,M30 - PK06+000 D (ALCALA)
-3.69199494558893,40.4088247427617,https://informo.madrid.es/cameras/Camara01331.jpg?v=39983,T. ATOCHA -  CIUDAD DE BARCELONA
-3.69341037171968,40.4075063499438,https://informo.madrid.es/cameras/Camara01332.jpg?v=39983,T. ATOCHA - RONDA VALENCIA
-3.71184263390804,40.4070283642133,https://informo.madrid.es/cameras/Camara01319.jpg?v=39983,PTA DE TOLEDO - SAN FRANCISCO
-3.71141188347022,40.4072821988773,https://informo.madrid.es/cameras/Camara01330.jpg?v=39983,PTA TOLEDO - CALLE TOLEDO
-3.63606528706361,40.4008816421402,https://informo.madrid.es/cameras/Camara14304.jpg?v=39983,FUENTE CARRANTONA - PAVONES
-3.71289238974273,40.4390500922993,https://informo.madrid.es/cameras/Camara07309.jpg?v=39983,AV FILIPINAS - CEA BERMUDEZ
-3.72467621339365,40.4053509390143,https://informo.madrid.es/cameras/Camara10304.jpg?v=39983,ERMITA DEL SANTO - SAN CONRADO
-3.77944276036352,40.4525248480484,https://informo.madrid.es/cameras/Camara09312.jpg?v=75864,ARROYO POZUELO - CRTA HUMERA
-3.66371261408021,40.367777305632,https://informo.madrid.es/cameras/Camara13306.jpg?v=75864,MERCAMADRID TECNOLOGICO
-3.69311403112182,40.4189623509677,https://informo.madrid.es/cameras/Camara01324.jpg?v=75864,CIBELES 2
-3.74094202082545,40.3929025079723,https://informo.madrid.es/cameras/Camara11305.jpg?v=75864,N. SRA. VALVANERA - VIA CARPETANA
-3.70228360048551,40.3977573545496,https://informo.madrid.es/cameras/Camara02307.jpg?v=75864,SANTA MARIA DE LA CABEZA - ESPERANZA
-3.61378546308108,40.3706003574835,https://informo.madrid.es/cameras/Camara18305.jpg?v=75864,ENSANCHE VALLECAS - GAVIA
-3.61319936511967,40.4222062549054,https://informo.madrid.es/cameras/Camara20311.jpg?v=75864,GUADALAJARA - TOSCANA
-3.62333895540511,40.4169090690885,https://informo.madrid.es/cameras/Camara20310.jpg?v=75864,ALSACIA - AQUITANIA
-3.6615278333932,40.4453457475838,https://informo.madrid.es/cameras/Camara05311.jpg?v=75864,M30 - PK04+600C (Av. de América)
-3.6824758853163,40.4828927269555,https://informo.madrid.es/cameras/Camara05312.jpg?v=75864,M30 PK31+600 C
-3.59159437754714,40.3599003920589,https://informo.madrid.es/cameras/Camara18306.jpg?v=75864,ENSANCHE VALLECAS - GRAN VIA SURESTE
-3.67468192298501,40.4760987242818,https://informo.madrid.es/cameras/Camara05310.jpg?v=75864,M30 - PK00+900 C
-3.59306511901547,40.46054054008,https://informo.madrid.es/cameras/Camara21302.jpg?v=75864,AV LOGROÑO - BAHIA DE CADIZ
-3.69280149865512,40.3414630815143,https://informo.madrid.es/cameras/Camara17302.jpg?v=75864,AV ANDALUCIA - SAN CRISTOBAL
-3.60396397975781,40.4240200736488,https://informo.madrid.es/cameras/Camara20313.jpg?v=75864,GINEBRA - SUECIA
-3.77420459948146,40.3967313941576,https://informo.madrid.es/cameras/Camara11306.jpg?v=75864,AV POBLADOS - VILLAVICIOSA
-3.63941422115586,40.4232333960769,https://informo.madrid.es/cameras/Camara15308.jpg?v=75864,DAROCA - LARGO CABALLERO
-3.68616469992965,40.4910328797468,https://informo.madrid.es/cameras/Camara08319.jpg?v=75864,HERRERA ORIA - N. SRA. VALVERDE
-3.6862740486794,40.380652085913,https://informo.madrid.es/cameras/Camara02311.jpg?v=75864,M30 - PK12+500 C (NUDO SUR - A4)
-3.65898087710185,40.4869466366154,https://informo.madrid.es/cameras/Camara16309.jpg?v=75864,MANOTERAS - CONDE MAYALDE
-3.60168115723861,40.3681416829336,https://informo.madrid.es/cameras/Camara18302.jpg?v=75864,LAS SUERTES - LA GAVIA
-3.67341670552222,40.4390471220064,https://informo.madrid.es/cameras/Camara04317.jpg?v=75864,AV AMERICA - CARTAGENA
-3.72397242904606,40.4918238877517,https://informo.madrid.es/cameras/Camara08320.jpg?v=75864,AV ARROYO DEL MONTE - SENDA DEL INFANTE
-3.72651854580146,40.439995825341,https://informo.madrid.es/cameras/Camara09313.jpg?v=75864,CARDENAL CISNEROS
-3.69756230979756,40.5025916447439,https://informo.madrid.es/cameras/Camara08321.jpg?v=75864,MONTECARMELO - MONASTERIO SUSO YUSO
-3.64811064128344,40.4331776994507,https://informo.madrid.es/cameras/Camara15310.jpg?v=75864,ALCALA - LAGO CONSTANZA
-3.63537557462152,40.462667863938,https://informo.madrid.es/cameras/Camara16310.jpg?v=75864,SILVANO - MACHUPICHU
-3.65624784220915,40.4225365108839,https://informo.madrid.es/cameras/Camara15309.jpg?v=75864,MARQUES DE CORBERA - RICARDO ORTIZ
-3.70581751458576,40.4295984016217,https://informo.madrid.es/cameras/Camara01333.jpg?v=75864,GTA RUIZ JIMENEZ
-3.65591622727829,40.4346127288799,https://informo.madrid.es/cameras/Camara15311.jpg?v=75864,PLAZA JOSE BANUS
-3.73476414459806,40.4341201162155,https://informo.madrid.es/cameras/Camara09314.jpg?v=75864,PTE DE LOS FRANCESES - AV VALLADOLID
-3.67576610387655,40.4723052873904,https://informo.madrid.es/cameras/Camara05313.jpg?v=75864,AV BURGOS - PIO XII
-3.7446955391277,40.3879370105194,https://informo.madrid.es/cameras/Camara11311.jpg?v=75864,GLORIETA DEL EJERCITO
-3.68011544899939,40.421854180601,https://informo.madrid.es/cameras/Camara04318.jpg?v=75864,MENENDEZ PELAYO - O'DONNELL
-3.6097958826721,40.4098135911148,https://informo.madrid.es/cameras/Camara19301.jpg?v=75864,PLAZA DE LA VICALVARADA
-3.67615805461547,40.4215214122775,https://informo.madrid.es/cameras/Camara03308.jpg?v=75864,O'DONNELL - NARVAEZ
-3.76702601163017,40.3990089373927,https://informo.madrid.es/cameras/Camara10310.jpg?v=75864,CTRA BOADILLA DEL MONTE - CARABIAS
-3.73956602001263,40.3845695972481,https://informo.madrid.es/cameras/Camara11312.jpg?v=75864,GENERAL RICARDOS - MARCELINO CAMACHO
-3.61953873065548,40.3972061927995,https://informo.madrid.es/cameras/Camara19302.jpg?v=75864,JOSE PRAT - CORDEL PAVONES
-3.7437134941009,40.3637437062297,https://informo.madrid.es/cameras/Camara11313.jpg?v=75864,VIA LUSITANA - AV DE LA PESETA
-3.70583891179341,40.3498042300503,https://informo.madrid.es/cameras/Camara17303.jpg?v=75864,ALCOCER - AV REAL PINTO - VILLALONSO
-3.64717854798268,40.4272607143562,https://informo.madrid.es/cameras/Camara15312.jpg?v=75864,AV DAROCA - STA PRISCA - CEMENTERIO
-3.6688505947086,40.3816779614045,https://informo.madrid.es/cameras/Camara13308.jpg?v=75864,AV ENTREVIAS - LA MANCHA
-3.6570275137738,40.4408157535109,https://informo.madrid.es/cameras/Camara15313.jpg?v=75864,AV BADAJOZ - SALVADOR MADARIAGA
-3.65791035900476,40.4710081175801,https://informo.madrid.es/cameras/Camara16311.jpg?v=75864,ACCESO ESTACION HORTALEZA - AV SAN LUIS
-3.66094267631849,40.4381637964732,https://informo.madrid.es/cameras/Camara04319.jpg?v=75864,AV BRASILIA - AV BONN
-3.66735050255565,40.4434917114467,https://informo.madrid.es/cameras/Camara05314.jpg?v=75864,CORAZON MARIA - CANILLAS
-3.69956658534205,40.4838570370042,https://informo.madrid.es/cameras/Camara08322.jpg?v=75864,M30 - PK30+000 (ARZOBISPO MORCILLO)
-3.77647692540259,40.3748523460537,https://informo.madrid.es/cameras/Camara10311.jpg?v=75864,AV AVIACION - ALDEANUEVA DE LA VERA
-3.71211253213426,40.385126849529,https://informo.madrid.es/cameras/Camara12310.jpg?v=75864,MARCELO USERA - RAFAELA YBARRA
-3.71345017239289,40.4149478310179,https://informo.madrid.es/cameras/Camara01334.jpg?v=75864,BAILEN-MAYOR
-3.67655804601578,40.472867692515,https://informo.madrid.es/cameras/Camara05315.jpg?v=75864,PIO XII - AV BURGOS
-3.68832412372811,40.3824453423973,https://informo.madrid.es/cameras/Camara02309.jpg?v=75864,"M-30 NUDO SUR P.K. 12,5"
-3.68533116194693,40.5073323273441,https://informo.madrid.es/cameras/Camara08323.jpg?v=75864,NTRA. SRA. VALVERDE - M. ARLANZA
-3.64713299584755,40.3989479600039,https://informo.madrid.es/cameras/Camara14306.jpg?v=75864,A3 - PK 05+155 E
-3.65897711919387,40.5038585744937,https://informo.madrid.es/cameras/Camara08324.jpg?v=75864,A1 - PK 12+026 E
-3.74106706873687,40.3677933697632,https://informo.madrid.es/cameras/Camara11314.jpg?v=75864,VIA LUSITANA - AGUACATE
-3.68571299881316,40.5163587068471,https://informo.madrid.es/cameras/Camara08325.jpg?v=75864,M607 - PK12+970 E
-3.77930602849782,40.4629059268475,https://informo.madrid.es/cameras/Camara09315.jpg?v=75864,A6 - PK 09+800 E
-3.77141387210447,40.3938085348633,https://informo.madrid.es/cameras/Camara10312.jpg?v=75864,A5 - PK 6+600 E (AV POBLADOS)
-3.67999069707902,40.3723050468375,https://informo.madrid.es/cameras/Camara13310.jpg?v=75864,A4 - PK 05+400 E
-3.70792579444456,40.4213954729926,https://informo.madrid.es/cameras/Camara01335.jpg?v=75864,GRAN VIA - SAN BERNARDO
-3.68066967329419,40.4042368677112,https://informo.madrid.es/cameras/Camara03309.jpg?v=75864,AV CIUDAD BARCELONA - MENENDEZ PELAYO
-3.67489615086937,40.4349305303449,https://informo.madrid.es/cameras/Camara04320.jpg?v=75864,DIEGO DE LEON - FRANCISCO SILVELA
-3.68376769612522,40.430173225874,https://informo.madrid.es/cameras/Camara04321.jpg?v=75864,VELAZQUEZ - JOSE ORTEGA Y GASET
-3.68870489704929,40.4206033485361,https://informo.madrid.es/cameras/Camara04322.jpg?v=75864,PZ INDEPENDENCIA - SERRANO
-3.68057595788645,40.440441382635,https://informo.madrid.es/cameras/Camara05323.jpg?v=75864,GTA. LOPEZ DE HOYOS
-3.70313500336684,40.4529500216313,https://informo.madrid.es/cameras/Camara06313.jpg?v=75864,BRAVO MURILLO - ÁVILA
-3.69862495088783,40.434694605352,https://informo.madrid.es/cameras/Camara07310.jpg?v=75864,SANTA ENGRACIA - PINTOR SOROLLA
-3.68637845649008,40.4991842881993,https://informo.madrid.es/cameras/Camara08326.jpg?v=75864,NUESTRA SRA VALVERDE - AFUERAS VALVERDE
-3.70991504517341,40.4851344686515,https://informo.madrid.es/cameras/Camara08327.jpg?v=75864,CARDENAL HERRERA ORIA - GINZO DE LIMIA
-3.68409719369014,40.4851302909588,https://informo.madrid.es/cameras/Camara08328.jpg?v=75864,LLANO CASTELLANOS - MAURICIO LEGENDRE
-3.66690236564622,40.5109897375835,https://informo.madrid.es/cameras/Camara08329.jpg?v=75864,CAMINO DE SANTIAGO - PORTO MARÍN
-3.67591052697848,40.5022259093677,https://informo.madrid.es/cameras/Camara08330.jpg?v=75864,CASTIELLO DE JACA - PUENTE LA REINA
-3.71520020689882,40.4289490133594,https://informo.madrid.es/cameras/Camara09316.jpg?v=75864,PRINCESA - SERRANO JOVER
-3.71841611336834,40.4273150244917,https://informo.madrid.es/cameras/Camara09317.jpg?v=75864,FERRAZ - QUINTANA
-3.72554173645758,40.4249694357525,https://informo.madrid.es/cameras/Camara09318.jpg?v=75864,GTA SAN ANTONIO DE LA FLORIDA
-3.73862206632168,40.4099431669945,https://informo.madrid.es/cameras/Camara10313.jpg?v=75864,PASEO EXTREMADURA - FRANCISCO BRIZUELA
-3.72355767068919,40.3935431010624,https://informo.madrid.es/cameras/Camara11315.jpg?v=75864,GENERAL RICARDOS - CAMINO VIEJO LEGANES
-3.72376702209834,40.3854223621052,https://informo.madrid.es/cameras/Camara11316.jpg?v=75864,OPORTO - PORTALEGRE
-3.7423299641474,40.3732029841046,https://informo.madrid.es/cameras/Camara11317.jpg?v=75864,AV POBLADOS - SECOYA
-3.66733971637406,40.3973489619218,https://informo.madrid.es/cameras/Camara13311.jpg?v=75864,ALBUFERA - MONTEIGUELDO
-3.65298654378498,40.381348866548,https://informo.madrid.es/cameras/Camara13312.jpg?v=75864,BUENOS AIRES - PABLO NERUDA
-3.66361481542804,40.3821196997675,https://informo.madrid.es/cameras/Camara13313.jpg?v=75864,ASAMBLEA DE MADRID
-3.65961848612103,40.3764660057986,https://informo.madrid.es/cameras/Camara13314.jpg?v=75864,ENTREVÍAS - RONDA SUR
-3.65824534225716,40.4104909664278,https://informo.madrid.es/cameras/Camara14307.jpg?v=75864,CAMINO VINATEROS - CORREGIDOR DIEGO VALDERRABANOS
-3.64613636777787,40.408067003884,https://informo.madrid.es/cameras/Camara14308.jpg?v=75864,CAMINO VINATEROS - AV MORATALAZ
-3.63425551607552,40.4330369654689,https://informo.madrid.es/cameras/Camara15314.jpg?v=75864,ILE - JULIAN CAMARILLO
-3.64384088662517,40.429423903327,https://informo.madrid.es/cameras/Camara15315.jpg?v=75864,FRANCISCO VILLAESPESA - EZEQUIEL SOLANA
-3.64409281916329,40.4576324073919,https://informo.madrid.es/cameras/Camara16312.jpg?v=75864,MOSCATELAR - SILVANO
-3.65893468463974,40.5006180313677,https://informo.madrid.es/cameras/Camara16313.jpg?v=75864,NICETO ALCALA ZAMORA - MARÍA DE PORTUGAL
-3.64810845897706,40.4837344488658,https://informo.madrid.es/cameras/Camara16314.jpg?v=75864,NICETO ALCALA ZAMORA - EMT
-3.67515523698498,40.3488444461609,https://informo.madrid.es/cameras/Camara17304.jpg?v=75864,AV ROSALES - ZAFIRO
-3.62436939613124,40.3814080913085,https://informo.madrid.es/cameras/Camara18307.jpg?v=75864,SAN JAIME - JESUS DEL PINO
-3.58238046047001,40.4758403357952,https://informo.madrid.es/cameras/Camara21303.jpg?v=75864,AV LOGROÑO - PAJARONES
-3.60304124910282,40.3992440565473,https://informo.madrid.es/cameras/Camara19303.jpg?v=75864,MINERVA - AURORA BOREAL
-3.66604382485338,40.4670914957143,https://informo.madrid.es/cameras/Camara15318.jpg?v=75864,ARTURO SORIA - AÑASTRO
-3.66756550343018,40.4663496792272,https://informo.madrid.es/cameras/Camara05319.jpg?v=75864,M30 PK02+400D - SAGRADO CORAZON
-3.67175057574646,40.4917593345837,https://informo.madrid.es/cameras/Camara16315.jpg?v=75864,A1 - PK10+100E
-3.66630040604208,40.4489066231937,https://informo.madrid.es/cameras/Camara05317.jpg?v=75864,LOPEZ DE HOYOS - ALFONSO XIII
-3.6663523244706,40.4490070212157,https://informo.madrid.es/cameras/Camara05318.jpg?v=75864,LÓPEZ DE HOYOS - CORAZÓN DE MARÍA
-3.66384507313014,40.4618906878572,https://informo.madrid.es/cameras/Camara15317.jpg?v=75864,ARTURO SORIA - EMETERIO CASTAÑOS
-3.65897922814275,40.4051283067728,https://informo.madrid.es/cameras/Camara13317.jpg?v=75864,SIERRA TOLEDANA
-3.68996926211941,40.3867895362457,https://informo.madrid.es/cameras/Camara02312.jpg?v=75864,PLANETARIO EMBAJADORES
-3.67647234908077,40.4115801480847,https://informo.madrid.es/cameras/Camara03310.jpg?v=75864,MENENDEZ PELAYO - PLAZA NIÑO JESÚS
-3.77740038561248,40.3642615092121,https://informo.madrid.es/cameras/Camara10315.jpg?v=75864,Bº DE LA FORTUNA - PINAR SAN JOSE
-3.69502596035371,40.4523425155143,https://informo.madrid.es/cameras/Camara06314.jpg?v=75864,GENERAL PERON - ORENSE
-3.71618127599255,40.4901206715704,https://informo.madrid.es/cameras/Camara08334.jpg?v=75864,VENTISQUERO DE LA CONDESA - PORTERA DEL CURA
-3.72051837312943,40.4712086149766,https://informo.madrid.es/cameras/Camara08331.jpg?v=75864,ANTONIO MACHADO - VALLE DE MENA
-3.6688027964132,40.4981118484398,https://informo.madrid.es/cameras/Camara08332.jpg?v=75864,QUINTANAVIDES - FORESTA
-3.67798991945315,40.5081870953342,https://informo.madrid.es/cameras/Camara08333.jpg?v=75864,STO. DOMINGO DE LA CALZADA - CASTIELLO DE JACA
-3.72804791633482,40.4481447200916,https://informo.madrid.es/cameras/Camara09319.jpg?v=75864,AV COMPLUTENSE - PARANINFO - ANTONIO NOVAIS
-3.73237255386224,40.4382851218764,https://informo.madrid.es/cameras/Camara09320.jpg?v=75864,JUAN DE HERRERA - MART͍N FIERRO
-3.65239182650725,40.4509218019204,https://informo.madrid.es/cameras/Camara15316.jpg?v=75864,ARTURO SORIA - DIEGO AYLLON
-3.6303875442991,40.3769874357041,https://informo.madrid.es/cameras/Camara18308.jpg?v=75864,GTA VALDEPERDICES
-3.71422780978537,40.3315557850406,https://informo.madrid.es/cameras/Camara17305.jpg?v=75864,AV REAL DE PINTO - AV TOBALINA
-3.74685788819195,40.3840790845591,https://informo.madrid.es/cameras/Camara11319.jpg?v=75864,NTRA. SRA. FATIMA - NTRA. SRA. LUZ
-3.74192714550153,40.3728656488284,https://informo.madrid.es/cameras/Camara11318.jpg?v=75864,SECOYA - AV POBLADOS
-3.63357051718817,40.3843406857371,https://informo.madrid.es/cameras/Camara13315.jpg?v=75864,AV DE LA ALBUFERA - M-40 ESTE
-3.59509638981506,40.403805183769,https://informo.madrid.es/cameras/Camara19304.jpg?v=75864,VILLABLANCA - GRAN VIA DEL ESTE
-3.61600271534155,40.463454259265,https://informo.madrid.es/cameras/Camara21305.jpg?v=75864,AV PARTENON-AV CAPITAL DE ESPAÑA
-3.69051644920119,40.4256693358544,https://informo.madrid.es/cameras/Camara01301.jpg?v=75864,COLON
-3.76346198589667,40.3999960571803,https://informo.madrid.es/cameras/Camara10316.jpg?v=75864,A5 - CTRA. BOADILLA
-3.71940418462156,40.4957345505403,https://informo.madrid.es/cameras/Camara08335.jpg?v=75864,PRADERA DE SACERAL
-3.60028795955883,40.4330085071683,https://informo.madrid.es/cameras/Camara20314.jpg?v=75864,ARCENTALES-ESTADIO
-3.68100999649692,40.45174331282,https://informo.madrid.es/cameras/Camara05326.jpg?v=75864,SERRANO - CONCHA ESPINA
-3.6691913523674,40.4162722660263,https://informo.madrid.es/cameras/Camara03311.jpg?v=75864,DOCTOR ESQUERDO - SAINZ DE BARANDA
-3.71925063312904,40.4656469075677,https://informo.madrid.es/cameras/Camara09322.jpg?v=75864,ANTONIO MACHADO - SINESIO DELGADO
-3.71141074055254,40.4574764709666,https://informo.madrid.es/cameras/Camara06312.jpg?v=75864,GTA ROCIO DURCAL
-3.67887310197703,40.4414281280491,https://informo.madrid.es/cameras/Camara05316.jpg?v=75864,PRINCIPE VERGARA - LOPEZ DE HOYOS
-3.68268862168383,40.4427977764915,https://informo.madrid.es/cameras/Camara05322.jpg?v=75864,VELAZQUEZ - JOAQUIN COSTA
-3.65127453449851,40.4870724135348,https://informo.madrid.es/cameras/Camara16308.jpg?v=75864,PI MARGAL - PRINCIPE CARLOS
-3.71305820445716,40.422232348297,https://informo.madrid.es/cameras/Camara09323.jpg?v=75864,CUESTA SAN VICENTE - BAILEN 1
-3.71326229798142,40.4218609896957,https://informo.madrid.es/cameras/Camara09324.jpg?v=75864,CUESTA SAN VICENTE - BAILEN 2
-3.71589367488431,40.424697230686,https://informo.madrid.es/cameras/Camara09325.jpg?v=75864,FERRAZ - LUISA FERNANDA
-3.65422755339084,40.404172969913,https://informo.madrid.es/cameras/Camara13316.jpg?v=75864,EL BOSCO - MARUJA GARCÍA ROMERO
-3.64267312439754,40.4845216617603,https://informo.madrid.es/cameras/Camara16320.jpg?v=75864,JOSE L. FDEZ. DEL AMO
-3.66055385775412,40.4913820750026,https://informo.madrid.es/cameras/Camara16318.jpg?v=75864,PI MARGALL-ANA DE AUSTRIA
-3.65689926454099,40.4890634880499,https://informo.madrid.es/cameras/Camara16319.jpg?v=75864,PI MARGAL - ALCALDE M. TORRES
-3.63282184169891,40.4866796850374,https://informo.madrid.es/cameras/Camara16321.jpg?v=75864,FUERZAS ARMADAS - ROCÍO JURADO
-3.62370473595821,40.4955505412947,https://informo.madrid.es/cameras/Camara16326.jpg?v=75864,MARIA MERCEDES DE  BORBON-SECUNDINO ZUAZO
-3.61880625058682,40.4822830655911,https://informo.madrid.es/cameras/Camara16322.jpg?v=75864,GTA. ANTONIO PERPIÑÁ
-3.61613452071854,40.495632209707,https://informo.madrid.es/cameras/Camara16325.jpg?v=75864,GRA. FRANCISCO JAREÑO
-3.60852130835182,40.4949222810245,https://informo.madrid.es/cameras/Camara16324.jpg?v=75864,GRA. JOSE PAZ MAROTO
-3.65410576732496,40.4974393082562,https://informo.madrid.es/cameras/Camara16317.jpg?v=75864,NICETO A. ZAMORA - ANA DE AUSTRIA
-3.6084330465517,40.4850904876097,https://informo.madrid.es/cameras/Camara16323.jpg?v=75864,FRAGA - JOSE ANTONIO CORRALES
-3.67936855014394,40.4360530902301,https://informo.madrid.es/cameras/Camara04323.jpg?v=75864,PRINCIPE DE VERGARA - GENERAL ORAA
-3.68849303679509,40.4066712472166,https://informo.madrid.es/cameras/Camara03301.jpg?v=75864,ALFONSO XII - CIUDAD DE BARCELONA
-3.68508947463532,40.4056700427818,https://informo.madrid.es/cameras/Camara03312.jpg?v=75864,CDAD DE BARCELONA - BASILICA ATOCHA
-3.67585228259416,40.4809750023532,https://informo.madrid.es/cameras/Camara05324.jpg?v=75864,AV BURGOS - AV SAN LUIS
-3.74157075878951,40.4769031732665,https://informo.madrid.es/cameras/Camara08336.jpg?v=75864,HERRERA ORIA-ARROYO FRESNO
-3.7298157174036,40.4571963023399,https://informo.madrid.es/cameras/Camara09321.jpg?v=75864,DEHESA DE LA VILLA - AV MIRAFLORES
-3.69023949186136,40.4590641757846,https://informo.madrid.es/cameras/Camara06305.jpg?v=75864,PLAZA DE CUZCO
-3.67483137890131,40.4014340682418,https://informo.madrid.es/cameras/Camara03314.jpg?v=75864,CIUDAD BARCELONA - DR. ESQUERDO
-3.68488382491894,40.3998873281694,https://informo.madrid.es/cameras/Camara02313.jpg?v=75864,MENDEZ ALVARO - COMERCIO
-3.63810859940847,40.4379639694623,https://informo.madrid.es/cameras/Camara15305.jpg?v=75864,ARTURO SORIA - ALCALA
-3.63848865709898,40.4699271498434,https://informo.madrid.es/cameras/Camara16303.jpg?v=75864,MAR DE CRISTAL
-3.68576395772991,40.4517394554037,https://informo.madrid.es/cameras/Camara05320.jpg?v=75864,SAGRADOS CORAZONES
-3.70016658869225,40.4385455214077,https://informo.madrid.es/cameras/Camara07305.jpg?v=75864,SANTA ENGRACIA - JOSE ABASCAL
-3.71645078384628,40.4306887232509,https://informo.madrid.es/cameras/Camara09302.jpg?v=75864,PRINCESA - MARQUES DE URQUIJO
-3.7285230015619,40.4136193484023,https://informo.madrid.es/cameras/Camara10305.jpg?v=75864,PUERTA DEL ANGEL - PASEO EXTREMADURA
-3.75632903617117,40.3981036467894,https://informo.madrid.es/cameras/Camara10314.jpg?v=75864,VALMOJADO YÉBENES - BARBERÁN COLLAR
-3.74478144857255,40.4008300960053,https://informo.madrid.es/cameras/Camara10318.jpg?v=75864,CONCEJAL FCO. JOSE JIMENEZ - ALHAMBRA
-3.73365161010312,40.3992968001188,https://informo.madrid.es/cameras/Camara11320.jpg?v=75864,VIA CARPETANA - ERMITA DEL SANTO
-3.75823369210462,40.3923522549902,https://informo.madrid.es/cameras/Camara10317.jpg?v=75864,ILLESCAS - VALMOJADO
